_id,全国地方公共団体コード,ID,地方公共団体名,名称,名称_カナ,名称_通称,名称_英語,文化財分類,種類,場所名称,所在地_全国地方公共団体コード,町字ID,所在地_連結表記,所在地_都道府県,所在地_市区町村,所在地_町字,所在地_番地以下,建物名等(方書),緯度,経度,高度の種別,高度の値,電話番号,内線番号,連絡先メールアドレス,連絡先FormURL,連絡先備考（その他、SNSなど）,郵便番号,員数（数）,員数（単位）,法人番号,所有者等,文化財指定日,利用可能曜日,開始時間,終了時間,利用可能日時特記事項,画像,画像_ライセンス,概要,概要_英語,説明,説明_英語,URL,備考
1,352152,CPN0000001,山口県周南市,八代のツルおよびその渡来地,ヤシロノツルオヨビソノトライチ,"","",特別天然記念物,"",八代地区,352152,"",山口県周南市大字八代;大字中須南　,山口県,周南市,大字八代;大字中須南　,"","",,,"","","","","","","","",1,ヶ所,,周南市　ほか,1955-02-15T00:00:00,"","","","","","",本州では唯一のナベヅル渡来地です。,"",大正10年(1921)3月３日に国の天然記念物として指定を受け、その後の昭和30年（1955）2月15日には、特別天然記念物の指定を受けました。現在では、本州唯一のツルの渡来地として、主にナベヅルが渡来します。,"",https://www.city.shunan.lg.jp/soshiki/56/3445.html,""
2,352152,CPN0000002,山口県周南市,絹本著色陶弘護像,ケンポンチャクショクスエヒロモリゾウ,"","",重要文化財,美術工芸品,周南市美術博物館（寄託）,352152,"",山口県周南市大字大道理門前,山口県,周南市,大字大道理門前,"","",34.05998,131.81162,"","","","","","","","",1,幅,,龍豊寺,1974-06-08T00:00:00,"","","","","","",陶弘護を描いた絵画です。,"",陶弘護の3回忌にあたる文明16年（1484）に描かれた絵で、雪舟の筆といわれています。賛は、雪舟と親交のあった禅僧以参周省によるもので、陶氏だけでなく、大内氏の歴史を知るうえで貴重な史料です。,"",https://www.city.shunan.lg.jp/soshiki/56/3445.html,""
3,352152,CPN0000003,山口県周南市,三作神楽,ミツクリカグラ,"","",重要無形民俗文化財;記録作成等の措置を講ずべき無形の民俗文化財,"",三作神楽伝承館,352152,"",山口県周南市大字夏切,山口県,周南市,大字夏切,"","",34.154897,131.736431,"","","","","","","","",-,-,,三作神楽保存会,2000-12-27T00:00:00,"","","","","","",和田三作地区（林・原赤・中村）に伝承される神楽です。,"",和田三作地区（林・原赤・中村）に伝えられる神楽です。7年目（卯年・酉年）ごとに奉納され、23の舞があります。神祭りの古風な形をよくとどめており、この地方の神楽の系譜を考えるうえで、非常に重要なものです。,"",https://www.city.shunan.lg.jp/soshiki/56/3445.html,""
4,352152,CPN0000004,山口県周南市,大玉スギ,オオタマスギ,"","",天然記念物,"",飛龍八幡宮,352152,"",山口県周南市大字須々万本郷  ,山口県,周南市,大字須々万本郷  ,"","",34.118257,131.863178,"","","","","","","","",1,本,,飛龍八幡宮,1930-08-25T00:00:00,"","","","","","",飛龍八幡宮にある高さ約34メートルの巨大な杉の木です。,"",県内でも最大級、高さ約34メートルの巨大なスギです。枝の繁る様子が、丸い玉のようであることから大玉スギと呼ばれています。たびたびの落雷や風害にもかかわらず、今も威容を誇っています。,"",https://www.city.shunan.lg.jp/soshiki/56/3445.html,""
5,352152,CPN0000005,山口県周南市,山田家本屋,ヤマダケホンヤ,"","",県指定重要文化財,建造物,山田家本屋,352152,"",山口県周南市大字湯野,山口県,周南市,大字湯野,"","",34.093932,131.675072,"","","","","","","","",1,棟,,周南市,1966-06-10T00:00:00,火水木金土日,10:00,16:30,毎週月曜（祝日の場合は翌日）、年末年始休館,"","",江戸時代中期の建築物です。,"",中門造という様式で建てられた江戸中期の建物です。隠し引き出しや回転式雨戸、筵天井など工夫をこらした造りで貴重なものです。かつては山陽道沿いにあり、幕末には村田清風や勤王の志士が訪れています。,"",https://www.city.shunan.lg.jp/soshiki/56/3445.html,""
6,352152,CPN0000006,山口県周南市,徳修館　,トクシュウカン,"","",県指定重要文化財,建造物,徳修館　,352152,"",山口県周南市大字安田,山口県,周南市,大字安田,"","",34.034741,131.981981,"","","","","","","","",1,棟,,周南市,1982-11-05T00:00:00,"","","","","","",士民教育振興のために創立された学舎です。,"",三丘領主第8代宍戸就年によって、領民教育振興のため文化6年（1809）に創設された郷校徳修館の遺構です。弘化3年（1846）に、第10代元礼によってこの孔子聖廟が建てられました。近隣各地より多くの若者が学び、郷土の発展に貢献しました。,"",https://www.city.shunan.lg.jp/soshiki/56/3445.html,""
7,352152,CPN0000007,山口県周南市,金梨子地菊桐紋散雲蒔絵　鞍・鐙,キンナシジキクキリモンチラシクモマキエ　クラ・アブミ,"","",県指定重要文化財,美術工芸品,周南市美術博物館（寄託）,352152,"",山口県周南市毛利町,山口県,周南市,毛利町,"","",34.05998,131.81162,"","","","","","","","",1,具,,個人,1990-03-30T00:00:00,"","","","","","",徳山毛利家に伝来する鞍・鐙です。,"",徳山毛利家に伝来する鞍と鐙で、徳山藩祖就隆の父毛利輝元が豊臣秀吉から拝領したものと伝えられます。表面に梨の実の皮に似せて金粉を散らし、菊と桐、棚引雲を配した蒔絵で装飾されています。,"",https://www.city.shunan.lg.jp/soshiki/56/3445.html,""
8,352152,CPN0000008,山口県周南市,建咲院什物,ケンショウインジュウモツ,"","",県指定重要文化財,美術工芸品,建咲院,352152,"",山口県周南市土井一丁目,山口県,周南市,土井一丁目,"","",34.080270,131.77058,"","","","","","","","",7,件,,建咲院,2004-12-10T00:00:00,"","","","","","",建咲院に伝わる毛利元就ゆかりの道具類です。,"",毛利元就が帰依した礼として、永禄3年（1560）に建咲院に寄進したと伝えられる血脈袋などの工芸品6点です。工芸品として貴重なだけでなく、歴史資料としても重要なものです。,"",https://www.city.shunan.lg.jp/soshiki/56/3445.html,""
9,352152,CPN0000009,山口県周南市,金造菩薩形坐像,キンゾウボサツギョウザゾウ,"","",県指定重要文化財,美術工芸品,楞厳寺,352152,"",山口県周南市大字湯野,山口県,周南市,大字湯野,"","",34.106665,131.680120,"","","","","","","","",1,軀,,楞厳寺,1987-03-27T00:00:00,"","","","","","",藤原時代の作と思われる、金で造られた菩薩形の像です。,"",藤原時代の作と思われる金で造られた菩薩形の像です。嘉永6年（1853）に、村人が楞厳寺裏山で土中から発見し、寺に奉納したといわれます。また、当時の住職が経緯を記した縁起を記し、出土した場所に石碑を建立しています。,"",https://www.city.shunan.lg.jp/soshiki/56/3445.html,""
10,352152,CPN0000010,山口県周南市,式内踊,シキナイオドリ,"","",県指定重要無形民俗文化財,"",二俣神社,352152,"",山口県周南市大字大向　,山口県,周南市,大字大向　,"","",34.1817,131.81765,"","","","","","","","",-,-,,式内踊保存会,1968-04-05T00:00:00,"","","","","","",五穀豊穣、厄病退散を願い、二俣神社に奉納される踊りです。,"",五穀豊穣、厄病退散を願い二俣神社に奉納する踊りです。御神体に礼を欠いたことから飢餓となったために、伊勢神宮へ参拝する道中で習い覚えたと言われています。,"",https://www.city.shunan.lg.jp/soshiki/56/3445.html,""
11,352152,CPN0000011,山口県周南市,長穂念仏踊,ナガオネンブツオドリ,"","",県指定重要無形民俗文化財,"",龍文寺,352152,"",山口県周南市大字長穂　,山口県,周南市,大字長穂　,"","",34.145035,131.836055,"","","","","","","","",-,-,,長穂念仏踊保存会,1968-04-05T00:00:00,"","","","","","",陶氏供養のため、後に雨乞いの踊りとして、龍文寺に伝わる踊りです。,"",陶氏供養のため、後に雨乞いの踊りとして伝えられる踊りです。杉氏が龍文寺にたてこもった陶晴賢の子・長房らを攻略するため、周方神社祭礼の踊りに紛れ乱入して討ち取ったことに由来するといわれています。,"",https://www.city.shunan.lg.jp/soshiki/56/3445.html,""
12,352152,CPN0000012,山口県周南市,諫鼓踊,カンコオドリ,"","",県指定重要無形民俗文化財,"",熊毛神社,352152,"",山口県周南市大字呼坂,山口県,周南市,大字呼坂,"","",34.044087,131.952255,"","","","","","","","",-,-,,勝間諫鼓踊保存会,1976-03-16T00:00:00,"","","","","","",勝間地区に伝わる民俗芸能で、熊毛神社に奉納される踊りです。,"",豊臣秀吉が文禄の役の戦勝の礼として奉納したとも、陶晴賢が大内義隆を滅ぼした時の様子を踊りにしたとも言われる踊りです。歌や音曲を伴わず、太鼓と鉦を伴奏として、団扇と棒を用いることに特色があります。7年ごとの秋と10年ごとの春に熊毛神社に奉納されます。,"",https://www.city.shunan.lg.jp/soshiki/56/3445.html,""
13,352152,CPN0000013,山口県周南市,花笠踊,ハナガサオドリ,"","",記録作成等の措置を講ずべき無形の民俗文化財;県指定無形民俗文化財,"",二所神社;山の神社,352152,"",山口県周南市大字八代,山口県,周南市,大字八代,"","",34.08748,131.93709,"","","","","","","","",-,-,,花笠踊保存顕彰会,1976-03-16T00:00:00,"","","","","","",大内義隆の霊を供養するため、二所神社に奉納される踊りです。,"",大内義隆の霊を供養するためと言われる踊りです。花笠をかぶった踊り子などが、魚切の「山の神」社で踊った後、行列を組み二所神社に向かいます。風流踊りの一つですが、小歌を歌い踊るところに特徴があります。,"",https://www.city.shunan.lg.jp/soshiki/56/3445.html,""
14,352152,CPN0000014,山口県周南市,周南市安田の糸あやつり人形芝居,シュウナンシヤスダノイトアヤツリニンギョウシバイ,"","",県指定重要無形民俗文化財,"",円通院,352152,"",山口県周南市大字安田,山口県,周南市,大字安田,"","",34.034258,131.977946,"","","","","","","","",-,-,,周南市安田の糸あやつり人形芝居保存会,1976-03-16T00:00:00,"","","","","","",江戸時代から伝わる浄瑠璃に合わせて糸で人形を操って行う芝居です。,"",浄瑠璃に合わせて糸で人形を操って行う素朴な芝居です。この芝居は、三丘領主の宍戸氏が定めた安田市の催し物として、阿波の松尾某という商人が伝えたことに始まるといわれています。,"",https://www.city.shunan.lg.jp/soshiki/56/3445.html,""
15,352152,CPN0000015,山口県周南市,山崎八幡宮の本山神事,ヤマサキハチマングウノホンヤマシンジ,"","",県指定重要無形民俗文化財,"",山崎八幡宮,352152,"",山口県周南市宮の前一丁目,山口県,周南市,宮の前一丁目,"","",34.075034,131.762417,"","","","","","","","",-,-,4250005005593,山崎八幡宮本山神事保存会,2010-05-18T00:00:00,"","","","","","",五穀豊穣祈願のために、本山などの山車を奉納したことに始まる神事です。,"",元禄15年（1702）に五穀豊穣祈願のために、本山などの山車を奉納したことに始まる神事です。本山は境内の坂を引き上げられた後に突き落とされ、その傾きによって豊凶を占います。,"",https://www.city.shunan.lg.jp/soshiki/56/3445.html,""
16,352152,CPN0000016,山口県周南市,潮音洞,チョウオンドウ,"","",県指定史跡,"",漢陽寺,352152,"",山口県周南市大字鹿野上,山口県,周南市,大字鹿野上,"","",34.235672,131.815181,"","","","","","","","",1,ヶ所,,漢陽寺,1966-06-10T00:00:00,"","","","","","",江戸時代に4年の歳月をかけて掘り抜いた水洞です。,"",慶安4年（1651）から足かけ4年の歳月をかけて、岩崎想左衛門重友が漢陽寺裏山に掘り抜いた水洞です。これによって住民の生活用水や鹿野台地の農業用水を得ることができました。山口県の水利民生事業初の大事業でした。,"",https://www.city.shunan.lg.jp/soshiki/56/3445.html,""
17,352152,CPN0000017,山口県周南市,若山城跡,ワカヤマジョウセキ,"","",県指定史跡,"",若山城跡,352152,"",山口県周南市大字夜市;大字福川,山口県,周南市,大字夜市;大字福川,"","",34.084344,131.726702,"","","","","","","","",1,ヶ所,,若山城跡保存協議会,1987-03-27T00:00:00,"","","","","","",大内氏の重臣陶氏が築いた城で、中世山城の典型的な形態をしています。,"",大内氏の重臣陶氏が築いた城で、中世山城の典型的な形態をしています。尾根伝いに三の丸、二の丸、本丸、西の丸、蔵屋敷と続く連郭式城郭で、現在でも空堀、壇床といった防御施設がよく残されています。,"",https://www.city.shunan.lg.jp/soshiki/56/3445.html,""
18,352152,CPN0000018,山口県周南市,勝栄寺土塁及び旧境内,ショウエイジドルイオヨビキュウケイダイ,"","",県指定史跡,"",勝栄寺,352152,"",山口県周南市中央町,山口県,周南市,中央町,"","",34.070423,131.766051,"","","","","","","","",1,ヶ所,,周南市、勝栄寺,1987-03-27T00:00:00,"","","","","","",南北朝時代創建の寺で、周囲に土塁と環濠を巡らせています。,"",南北朝時代（1350年頃）に陶弘政が創建した寺で、政治的・軍事的性格を持って城郭の機能を果たした時宗寺院の様子を伝える重要な遺構です。寺の周囲に土塁と環濠を巡らせていたことがわかっています。後にこの寺で毛利元就が教訓状を記したといわれています。,"",https://www.city.shunan.lg.jp/soshiki/56/3445.html,""
19,352152,CPN0000019,山口県周南市,秘密尾の氷見神社社叢,ヒミツオノヒミジンジャシャソウ,"","",県指定天然記念物,"",氷見神社,352152,"",山口県周南市大字須万,山口県,周南市,大字須万,"","",,,"","","","","","","","",1,ヶ所,,氷見神社,1972-05-12T00:00:00,"","","","","","",氷見神社の御神体として自然のままの姿で保存されている原生林です。,"",神社の御神体として、斧を入れたことのない、自然のままの姿で保存されている原生林です。標高500～900メートルにわたって生育する植物種の変化を観察できることが貴重です。,"",https://www.city.shunan.lg.jp/soshiki/56/3445.html,""
20,352152,CPN0000020,山口県周南市,須万風呂ケ原のエノキ,スマフロガハラノエノキ,"","",県指定天然記念物,"","",352152,"",山口県周南市大字須万,山口県,周南市,大字須万,"","",34.214216,131.877154,"","","","","","","","",1,本,,個人,1980-12-05T00:00:00,"","","","","","",枝張り約15ｍに及ぶ県下一の巨樹です。,"",根もとの直上で二分し、分枝が川に向かっています。ただし、川に向かう分枝は昭和59年3月に折損しました。エノキはニレ科の落葉高木で、古来神の宿る木と信じられており、この樹の下にも小祠があります。,"",https://www.city.shunan.lg.jp/soshiki/56/3445.html,""
21,352152,CPN0000021,山口県周南市,安田宍戸記念碑,ヤスダシシドキネンヒ,"","",市指定重要文化財,建造物,"",352152,"",山口県周南市大字安田,山口県,周南市,大字安田,"","",34.03538,131.98173,"","","","","","","","",1,基,,個人,1971-02-04T00:00:00,"","","","","","",大正13年に宍戸家の旧家臣によって建てられた碑です。,"",毛利氏一門の筆頭で三丘11代最後の領主、宍戸親基は、幕末維新において多くの業績をあげました。大正13年に宍戸家の旧家臣によって建てられた碑です。,"",https://www.city.shunan.lg.jp/soshiki/56/3445.html,""
22,352152,CPN0000022,山口県周南市,上年五輪塔,ジョウネンゴリントウ,"","",市指定重要文化財,建造物,"",352152,"",山口県周南市大字上村,山口県,周南市,大字上村,"","",34.095481,131.785307,"","","","","","","","",1,基,,個人,1974-09-24T00:00:00,"","","","","","",県内の鎌倉時代のものでは最大級の五輪塔です。,"",嘉元元年（1303）の銘がある五輪塔です。その銘から個人の供養のために建てられたと考えられます。高さに比べて横幅が広く安定感があり、県内の鎌倉時代の五輪塔として規模も最大級で立派なものです。,"",https://www.city.shunan.lg.jp/soshiki/56/3445.html,""
23,352152,CPN0000023,山口県周南市,山崎八幡宮本山神事山車,ヤマサキハチマングウホンヤマシンジダシ,"","",市指定重要文化財,建造物,山崎八幡宮,352152,"",山口県周南市宮の前一丁目,山口県,周南市,宮の前一丁目,"","",34.075034,131.762417,"","","","","","","","",1,輛,4250005005593,山崎八幡宮,1974-12-01T00:00:00,"","","","","","",山崎八幡宮本山神事で使われる山車です。,"",元禄15年（1702）に始まったという本山神事の際に用いられる山車です。山車の組み立てには、釘ではなくカズラなどを使い、車輪も松の輪切りを使うなど、古い様式がよく残っています。,"",https://www.city.shunan.lg.jp/soshiki/56/3445.html,""
24,352152,CPN0000024,山口県周南市,慈福寺宝篋印塔,ジフクジホウキョウイントウ,"","",市指定重要文化財,建造物,慈福寺,352152,"",山口県周南市桜木２丁目,山口県,周南市,桜木２丁目,"","",34.038833,131.840058,"","","","","","","","",1,基,,慈福寺,1976-07-26T00:00:00,"","","","","","",3メートルを超える県下に類を見ない鎌倉時代の宝篋印塔です。,"",3メートルを超える県下に類を見ない鎌倉時代の宝篋印塔です。『防長寺社由来』の記載によると、足利尊氏が九州に向かう際、自分の供養のために生前に建てた「逆修墓」であるともいわれています。,"",https://www.city.shunan.lg.jp/soshiki/56/3445.html,""
25,352152,CPN0000025,山口県周南市,岩屋寺笠塔婆,イワヤジカサトウバ,"","",市指定重要文化財,建造物,岩屋寺,352152,"",山口県周南市大字下上,山口県,周南市,大字下上,"","",34.0926,131.77742,"","","","","","","","",1,基,,周南市,1978-07-13T00:00:00,"","","","","","",中世に盛んに造られた石造塔婆の一種です。,"",中世に盛んに造られた石造塔婆の一種です。昭和53年に丸山共同墓地から発見され、その後岩屋寺に移されました。この地域には中世の石造塔婆が数多く残り、庶民にも仏教が強く信仰されていたことが分かります。,"",https://www.city.shunan.lg.jp/soshiki/56/3445.html,""
26,352152,CPN0000026,山口県周南市,湯野板碑,ユノイタヒ,"","",市指定重要文化財,建造物,"",352152,"",山口県周南市大字湯野,山口県,周南市,大字湯野,"","",34.101117,131.677028,"","","","","","","","",3,基,,個人,1981-03-24T00:00:00,"","","","","","",3基並立する室町時代に建てられた板碑です。,"",応永12年（1405）に建てられた板碑です。３基並立していますが、これらは一組と考えられ、左塔と右塔は、その断面から一つの石を割って制作したことが分かります。地元では「石仏さん」として親しまれています。,"",https://www.city.shunan.lg.jp/soshiki/56/3445.html,""
27,352152,CPN0000027,山口県周南市,清尾板碑,セイノオイタヒ,"","",市指定重要文化財,建造物,"",352152,"",山口県周南市大字清尾,山口県,周南市,大字清尾,"","",34.048529,131.980546,"","","","","","","","",1,基,,個人,1983-12-07T00:00:00,"","","","","","",南朝年号である正平10年(1355)の銘がある板碑です。,"",阿弥陀三尊をあらわす梵字とともに、南朝年号である正平10年（1355）の銘がある板碑です。当時、南朝側であった大内弘世は、防長を統一後に北朝側となることから、当時を偲ぶ資料の一つといえます。,"",https://www.city.shunan.lg.jp/soshiki/56/3445.html,""
28,352152,CPN0000028,山口県周南市,四熊板碑,シクマイタヒ,"","",市指定重要文化財,建造物,"",352152,"",山口県周南市大字四熊,山口県,周南市,大字四熊,"","",34.103931,131.764831,"","","","","","","","",1,基,,個人,1984-03-26T00:00:00,"","","","","","",地蔵像を彫る南北朝時代の板碑です。,"",銘文から応安7年（1374）に建てられたことがわかる板碑です。僧侶の指導によって庶民が力を合わせて建てたと考えられ、また地蔵像の彫法など石造美術の面からも非常に価値があります。,"",https://www.city.shunan.lg.jp/soshiki/56/3445.html,""
29,352152,CPN0000029,山口県周南市,建咲院板碑,ケンショウインイタヒ,"","",市指定重要文化財,建造物,建咲院,352152,"",山口県周南市土井一丁目,山口県,周南市,土井一丁目,"","",34.080270,131.771240,"","","","","","","","",1,基,,建咲院,1985-05-01T00:00:00,"","","","","","",自然石で造られた鎌倉時代の板碑です。,"",自然石で量感のある堂々たる板碑です。正安2年(1300)の銘があり、県下で6番目に古いものです。梵字は墨書されていたと思われます。鎌倉時代の民間信仰の様子を知るうえで貴重な資料です。,"",https://www.city.shunan.lg.jp/soshiki/56/3445.html,""
30,352152,CPN0000030,山口県周南市,大神板碑,ダイジンイタヒ,"","",市指定重要文化財,建造物,"",352152,"",山口県周南市大字富田,山口県,周南市,大字富田,"","",34.083776,131.763069,"","","","","","","","",1,基,,自治会,1986-02-28T00:00:00,"","","","","","",自然石で造られた南北朝時代の板碑です。,"",板状の自然石の板碑で、上部に地蔵菩薩の梵字が刻まれた県下でも古い板碑です。刻まれた文字から、「念阿」を供養するために、応安3年(1370)に建立されたことが分かります。,"",https://www.city.shunan.lg.jp/soshiki/56/3445.html,""
31,352152,CPN0000031,山口県周南市,日地板碑,ヒジイタヒ,"","",市指定重要文化財,建造物,"",352152,"",山口県周南市富田二丁目,山口県,周南市,富田二丁目,"","",34.075172,131.754568,"","","","","","","","",1,基,,自治会,1987-12-08T00:00:00,"","","","","","",自然石で造られた室町時代の板碑です。,"",文明2年(1470)に建てられた三角錐形の堂々とした自然石の板碑で、地蔵菩薩の梵字が彫られています。室町中期の信仰とともに、庶民が塔婆を建てることができた民度の高さを示すものです。,"",https://www.city.shunan.lg.jp/soshiki/56/3445.html,""
32,352152,CPN0000032,山口県周南市,菅蔵石塔群,スゲゾウセキトウグン,"","",市指定重要文化財,建造物,"",352152,"",山口県周南市大字金峰,山口県,周南市,大字金峰,"","",34.188553,131.853466,"","","","","","","","",4,基,,個人,1989-04-28T00:00:00,"","","","","","",鎌倉時代から南北朝時代の層塔・宝篋印塔・板碑・角塔婆の石造物群です。,"",鎌倉時代から南北朝時代にかけて造られた層塔、宝篋印塔、板碑、角塔婆です。層塔と宝篋印塔は鎌倉時代、板碑と角塔婆は南北朝時代の形式をとどめている石造物群です。,"",https://www.city.shunan.lg.jp/soshiki/56/3445.html,""
33,352152,CPN0000033,山口県周南市,貝籠五輪塔群,カイゴモリゴリントウグン,"","",市指定重要文化財,建造物,"",352152,"",山口県周南市大字夜市,山口県,周南市,大字夜市,"","",34.087484,131.704220,"","","","","","","","",10,基,,周南市,1989-07-03T00:00:00,"","","","","","",鎌倉時代から南北朝時代にかけての10基の五輪塔です。,"",弘安4年(1281)と刻まれた塔を含む、五輪塔10基です。鎌倉末期から室町時代にかけての造立と思われます。これらは本来の目的である本尊供養から、次第に墓塔化していく過程を示す実例といえます。,"",https://www.city.shunan.lg.jp/soshiki/56/3445.html,""
34,352152,CPN0000034,山口県周南市,勝栄寺板碑,ショウエイジイタヒ,"","",市指定重要文化財,建造物,勝栄寺,352152,"",山口県周南市中央町,山口県,周南市,中央町,"","",34.070423,131.766051,"","","","","","","","",1,基,,勝栄寺,1992-12-22T00:00:00,"","","","","","",阿弥陀如来の梵字が彫られている室町時代の板碑です。,"",延徳3年（1491）に建てられた板碑で、阿弥陀如来の梵字が彫られています。蓮座などの彫り方に硬さがあり、室町中期以降の特色をみせています。阿弥陀如来種子で、かつ紀年銘がある板碑として貴重です。,"",https://www.city.shunan.lg.jp/soshiki/56/3445.html,""
35,352152,CPN0000035,山口県周南市,真福寺板碑,シンプクジイタヒ,"","",市指定重要文化財,建造物,真福寺,352152,"",山口県周南市福川中市町,山口県,周南市,福川中市町,"","",34.074420,131.735470,"","","","","","","","",3,基,,真福寺,1999-09-30T00:00:00,"","","","","","",地蔵菩薩と不動明王を一体として祀る鎌倉時代の板碑です。,"",乾元2年（1303）に建てられた板碑です。特筆すべきは地蔵菩薩と不動明王を一体として祀っている点で、鎌倉時代の当地方の庶民信仰のありさまを示すものとして重要です。,"",https://www.city.shunan.lg.jp/soshiki/56/3445.html,""
36,352152,CPN0000036,山口県周南市,浄真寺板碑,ジョウシンジイタヒ,"","",市指定重要文化財,建造物,浄真寺,352152,"",山口県周南市大字富田,山口県,周南市,大字富田,"","",34.074259,131.758203,"","","","","","","","",1,基,,浄真寺,2001-01-25T00:00:00,"","","","","","",類例の少ない梵字を刻んだ鎌倉時代の板碑です。,"",鎌倉時代中期に建てられた、「胎蔵界曼荼羅」の「中台八葉院」の梵字を刻む県内唯一の板碑です。当地方の信仰の様子を知る貴重な資料です。,"",https://www.city.shunan.lg.jp/soshiki/56/3445.html,""
37,352152,CPN0000037,山口県周南市,浄真寺五輪塔,ジョウシンジゴリントウ,"","",市指定重要文化財,建造物,浄真寺,352152,"",山口県周南市大字富田,山口県,周南市,大字富田,"","",34.074259,131.758203,"","","","","","","","",1,基,,浄真寺,2001-01-25T00:00:00,"","","","","","",岩塊を彫りだした鎌倉時代の五輪塔です。,"",岩塊を彫り出した五輪塔です。古風な成型から鎌倉時代中期のものと思われます。県内で、このように古い時代の一石から彫り出した五輪塔は珍しく貴重なものです。,"",https://www.city.shunan.lg.jp/soshiki/56/3445.html,""
38,352152,CPN0000038,山口県周南市,絹本着色釈迦十六善神図,ケンポンチャクショクシャカジュウロクゼンシンズ,"","",市指定重要文化財,美術工芸品,保福寺,352152,"",山口県周南市大字須々万奥,山口県,周南市,大字須々万奥,"","",34.124045,131.865655,"","","","","","","","",1,幅,,保福寺,1977-05-17T00:00:00,"","","","","","",室町時代に須々万八幡宮(現・飛龍八幡宮）へ寄進された画幅です。,"",もとは、文亀3年（1503）に、勝屋貴為が須々万八幡宮（現：飛龍八幡宮）に寄進した画幅です。16体の護法善神が精緻な筆遣いで描かれています。奉納された来歴があきらかで貴重なものです。,"",https://www.city.shunan.lg.jp/soshiki/56/3445.html,""
39,352152,CPN0000039,山口県周南市,紙本着色八幡縁起絵巻,シホンチャクショクハチマンエンギエマキ,"","",市指定重要文化財,美術工芸品,鷹飛原八幡宮,352152,"",山口県周南市大字夜市,山口県,周南市,大字夜市,"","",34.085320,131.716147,"","","","","","","","",2,巻,,鷹飛原八幡宮,1988-06-01T00:00:00,"","","","","","",室町時代に製作された、市内に残る唯一の八幡縁起です。,"",室町時代に製作されたと思われる、市内に残る唯一の八幡縁起絵巻です。上巻は神功皇后が新羅へ赴く様子が、下巻は帰国後、応神天皇を出産する様子が描かれています。土佐派の様式で、写実的で丁寧に描かれています。,"",https://www.city.shunan.lg.jp/soshiki/56/3445.html,""
40,352152,CPN0000040,山口県周南市,木造大日如来坐像等,モクゾウダイニチニョライザゾウトウ,"","",市指定重要文化財,美術工芸品,熊毛神社,352152,"",山口県周南市大字呼坂,山口県,周南市,大字呼坂,"","",34.043999,131.952127,"","","","","","","","",6,躯　ほか,,自治会,1969-03-30T00:00:00,"","","","","","",熊毛神社のそばにかつてあった神光院の仏像です。,"",熊毛神社のそばにあった神光院の仏像です。明治初期の神仏分離令によって寺は解体され、その本尊である大日如来像ほか諸仏像や涅槃画、大般若経が残っています。,"",https://www.city.shunan.lg.jp/soshiki/56/3445.html,""
41,352152,CPN0000041,山口県周南市,木造聖観音菩薩坐像,モクゾウショウカンノンボサツザゾウ,"","",市指定重要文化財,美術工芸品,安国寺,352152,"",山口県周南市大字原,山口県,周南市,大字原,"","",34.044,131.93403,"","","","","","","","",1,躯,,安国寺,1976-04-01T00:00:00,"","","","","","",安国寺の境内にある高寺観音堂に祀られた、聖観音像です。,"",安国寺の境内にある高寺観音堂に祀られた、聖観音像です。周防三十三観音霊場の第10番札所に定められ、霊験あらたかな観音様として、信者の参詣が絶えません。20年ごとに開帳されます。,"",https://www.city.shunan.lg.jp/soshiki/56/3445.html,""
42,352152,CPN0000042,山口県周南市,木造阿弥陀如来立像,モクゾウアミダニョライリュウゾウ,"","",市指定重要文化財,美術工芸品,浄真寺,352152,"",山口県周南市大字富田,山口県,周南市,大字富田,"","",34.074259,131.758203,"","","","","","","","",1,躯,,浄真寺,1978-09-01T00:00:00,"","","","","","",藤原時代末期の一木造りで素朴な地方作の像です。,"",藤原時代末期のものとみられる一木造りで素朴な地方作の像です。彫りの浅い流麗な衣文や、ふくよかな面相をしています。宝永2年(1705)とある修理銘も、史料として重要です。,"",https://www.city.shunan.lg.jp/soshiki/56/3445.html,""
43,352152,CPN0000043,山口県周南市,木造聖観世音菩薩立像,モクゾウショウカンゼオンボサツリュウゾウ,"","",市指定重要文化財,美術工芸品,建咲院,352152,"",山口県周南市土井一丁目,山口県,周南市,土井一丁目,"","",34.080270,131.771240,"","","","","","","","",1,躯,,建咲院,1978-09-01T00:00:00,"","","","","","",鎌倉時代の寄木造りの像です。,"",鎌倉時代に造られた寄木造りの像です。もとは浄宝寺の本尊として造られ、周防三十三観音霊場の第17番札所として崇敬されてきました。亥年ごとに開帳され、この地方の信仰と深く結びついています。,"",https://www.city.shunan.lg.jp/soshiki/56/3445.html,""
44,352152,CPN0000044,山口県周南市,木造薬師如来立像,モクゾウヤクシニョライリュウゾウ,"","",市指定重要文化財,美術工芸品,河内薬師堂,352152,"",山口県周南市河内町,山口県,周南市,河内町,"","",34.079525,131.759439,"","","","","","","","",1,躯,,自治会,1980-04-01T00:00:00,"","","","","","",鎌倉時代の一木造りの像です。,"",鎌倉時代のものとみられる一木造りで、地方作としては優秀な像です。藤原期の様式に習いながらも鎌倉風がみられます。がっしりした量感があり、丁寧に彫られています。,"",https://www.city.shunan.lg.jp/soshiki/56/3445.html,""
45,352152,CPN0000045,山口県周南市,木造聖観音菩薩立像,モクゾウショウカンノンボサツリュウゾウ,"","",市指定重要文化財,美術工芸品,岩屋寺,352152,"",山口県周南市大字下上,山口県,周南市,大字下上,"","",34.09232,131.77798,"","","","","","","","",1,躯,,岩屋寺,1981-03-24T00:00:00,"","","","","","",鎌倉時代の寄木造りの像です。,"",鎌倉時代に造られた寄木造りの像です。観音菩薩は、衆生救済のため様々な姿に変化しますが、もとの姿を聖観音と呼びます。巳年ごとに開帳され、周防三十三観音霊場の第16番札所として崇敬されています。,"",https://www.city.shunan.lg.jp/soshiki/56/3445.html,""
46,352152,CPN0000046,山口県周南市,木造如意輪観音菩薩輪王坐像,モクゾウニョイリンカンノンボサツリンノウザゾウ,"","",市指定重要文化財,美術工芸品,福田寺,352152,"",山口県周南市大字徳山,山口県,周南市,大字徳山,"","",34.059152,131.822634,"","","","","","","","",1,躯,,福田寺,1981-03-24T00:00:00,"","","","","","",南北朝時代の寄木造りの像です。,"",南北朝時代に造られたとみられる寄木造りの像です。周防三十三観音霊場の第14番札所で、辰年に開帳されます。寺伝では、観音堂の灯りを見た心のやましい者の船が進路を間違えたため、興元寺山から現在地に移動したといわれます。,"",https://www.city.shunan.lg.jp/soshiki/56/3445.html,""
47,352152,CPN0000047,山口県周南市,木造釈迦如来坐像,モクゾウシャカニョライザゾウ,"","",市指定重要文化財,美術工芸品,龍文寺,352152,"",山口県周南市大字長穂,山口県,周南市,大字長穂,"","",34.145035,131.836055,"","","","","","","","",1,躯,,龍文寺,1984-03-26T00:00:00,"","","","","","",南北朝時代の寄木造りの像です。,"",応安7年（1374）に、仏師の院什法印が造った寄木造りの像です。ゆったりとした都ぶりな像で、仏師の名前からも院派と呼ばれる仏師集団の作であることが分かります。,"",https://www.city.shunan.lg.jp/soshiki/56/3445.html,""
48,352152,CPN0000048,山口県周南市,鷹飛原八幡宮の神像,タカトバラハチマングウノシンゾウ,"","",市指定重要文化財,美術工芸品,鷹飛原八幡宮,352152,"",山口県周南市大字夜市,山口県,周南市,大字夜市,"","",34.085320,131.7161479,"","","","","","","","",6,躯,,鷹飛原八幡宮,1988-06-01T00:00:00,"","","","","","",鷹飛原八幡宮に伝わる鎌倉時代の神像です。,"",鎌倉時代に造られた神像です。女神像2躰は神功皇后と三女神、男神像4躰は武内宿祢、仲哀・応神・仁徳天皇にあてられます。鎌倉時代の特色をよく表している像で、八幡縁起絵巻と併せ、中世神社の貴重な資料です。,"",https://www.city.shunan.lg.jp/soshiki/56/3445.html,""
49,352152,CPN0000049,山口県周南市,木造地蔵菩薩立像,モクゾウジゾウボサツリュウゾウ,"","",市指定重要文化財,美術工芸品,漢陽寺,352152,"",山口県周南市大字鹿野上,山口県,周南市,大字鹿野上,"","",34.235331,131.814742,"","","","","","","","",1,躯,,漢陽寺,1989-04-28T00:00:00,"","","","","","",藤原時代の一木造りの像です。,"",藤原時代に造られた、ヒノキの一木造りの像です。「沓（くつ）をはくお地蔵さん」として、古くから親しまれています。,"",https://www.city.shunan.lg.jp/soshiki/56/3445.html,""
50,352152,CPN0000050,山口県周南市,木造十一面観音菩薩坐像,モクゾウジュウイチメンカンノンボサツザゾウ,"","",市指定重要文化財,美術工芸品,漢陽寺,352152,"",山口県周南市大字鹿野上,山口県,周南市,大字鹿野上,"","",34.235331,131.814742,"","","","","","","","",1,躯,,漢陽寺,1989-04-28T00:00:00,"","","","","","",慈覚大師の作とされる鎌倉時代の像です。,"",鎌倉時代に造られたとみられる像です。中山観音堂洪鐘鋳替勧進帳写によれば、延暦寺三代慈覚大師の作とされています。,"",https://www.city.shunan.lg.jp/soshiki/56/3445.html,""
51,352152,CPN0000051,山口県周南市,木造薬師如来坐像等,モクゾウヤクシニョライザゾウトウ,"","",市指定重要文化財,美術工芸品,薬師堂,352152,"",山口県周南市大字鹿野上,山口県,周南市,大字鹿野上,"","",34.228941,131.816005,"","","","","","","","",15,躯,,龍雲寺,1989-04-28T00:00:00,"","","","","","",鎌倉時代の像です。,"",鎌倉時代に造られたとみられる像です。特に脇侍である日光菩薩・月光菩薩と、眷属である十二神将は保存が良好です。,"",https://www.city.shunan.lg.jp/soshiki/56/3445.html,""
52,352152,CPN0000052,山口県周南市,木造大日如来坐像,モクゾウダイニチニョライザゾウ,"","",市指定重要文化財,美術工芸品,岩屋寺,352152,"",山口県周南市大字上村,山口県,周南市,大字上村,"","",34.088608,131.799582,"","","","","","","","",1,躯,,蓮宅寺（岩屋寺）,1998-07-27T00:00:00,"","","","","","",藤原時代末期の一木造りの像です。,"",藤原時代末期の特徴がよく表れた一木造りの像です。周防三十三観音霊場の第15番札所（蓮宅寺）として崇敬されています。県内で金剛界大日如来像の作例は珍しく、またこの地方の密教の流布をうかがい知ることができる貴重な資料です。,"",https://www.city.shunan.lg.jp/soshiki/56/3445.html,""
53,352152,CPN0000053,山口県周南市,銅造阿弥陀如来立像,ドウゾウアミダニョライリュウゾウ,"","",市指定重要文化財,美術工芸品,八正寺,352152,"",山口県周南市平和通１丁目,山口県,周南市,平和通１丁目,"","",34.050950,131.807902,"","","","","","","","",1,躯,,八正寺,2007-11-27T00:00:00,"","","","","","",鎌倉時代の阿弥陀如来像です。,"",鎌倉時代に造られた善光寺式三尊の阿弥陀如来像です。鋳造のこの像は、もとは両脇に観音菩薩像と勢至菩薩像があって、それを本尊の後方につけられた舟形の光背が包んでいました。,"",https://www.city.shunan.lg.jp/soshiki/56/3445.html,""
54,352152,CPN0000054,山口県周南市,銅造洪鐘,ドウゾウコウショウ,"","",市指定重要文化財,美術工芸品,遠石八幡宮,352152,"",山口県周南市遠石２丁目,山口県,周南市,遠石２丁目,"","",34.03917,131.82338,"","","","","","","","",1,口,,遠石八幡宮,1974-09-24T00:00:00,"","","","","","",鎌倉時代の技法をよく表している洪鐘です。,"",鎌倉時代の技法をよく表している洪鐘です。元暦元年（1184）、壇ノ浦合戦直前の戦の際に流矢が当たった鐘と造り直した鐘を合わせて、改めて元応2年（1320）に造り直したことが銘文に記されています。,"",https://www.city.shunan.lg.jp/soshiki/56/3445.html,""
55,352152,CPN0000055,山口県周南市,銅造鰐口,ドウゾウワニグチ,"","",市指定重要文化財,美術工芸品,荘宮寺,352152,"",山口県周南市大字富田,山口県,周南市,大字富田,"","",34.074919,131.761721,"","","","","","","","",1,口,,荘宮寺,1974-12-01T00:00:00,"","","","","","",江戸時代初期の鰐口です。,"",慶長13年(1608)に金光寺鰐口として鋳造されたものです。製作技法的には中世・近世双方の技法が用いられ、鋳傷や亀裂などもなく、保存も良好です。,"",https://www.city.shunan.lg.jp/soshiki/56/3445.html,""
56,352152,CPN0000056,山口県周南市,金銅経筒,コンドウキョウヅツ,"","",市指定重要文化財,美術工芸品,三汲寺,352152,"",山口県周南市大字高瀬,山口県,周南市,大字高瀬,"","",34.169218,131.7566,"","","","","","","","",2,口,,三汲寺,1976-09-01T00:00:00,"","","","","","",鍍金した銅板で造られた室町時代の金銅経筒です。,"",鍍金した銅板で造られた六角形の経筒で、六十六部聖が全国の霊場を巡って奉納するためのものです。天文24年（1555）に造られた経筒の中に、法華経8巻を納めています。,"",https://www.city.shunan.lg.jp/soshiki/56/3445.html,""
57,352152,CPN0000057,山口県周南市,鉄造茶釜,テツゾウチャガマ,"","",市指定重要文化財,美術工芸品,龍文寺,352152,"",山口県周南市大字長穂,山口県,周南市,大字長穂,"","",34.145035,131.836055,"","","","","","","","",1,口,,龍文寺,1978-07-13T00:00:00,"","","","","","",陶氏が製作させたといわれる室町時代の鉄造茶釜です。,"",永正2年（1505）に、陶興房が龍文寺僧堂の公用とするために製作させた特注の茶釜です。龍文寺は陶氏菩提寺として保護されてきました。茶釜の造りは筑前芦屋釜であることをうかがわせます。,"",https://www.city.shunan.lg.jp/soshiki/56/3445.html,""
58,352152,CPN0000058,山口県周南市,金銅聖観世音菩薩坐像懸仏,コンドウショウカンゼオンボサツザゾウカケボトケ,"","",市指定重要文化財,美術工芸品,二俣神社,352152,"",山口県周南市大字大向,山口県,周南市,大字大向,"","",34.181997,131.818121,"","","","","","","","",1,面,,二俣神社,1984-03-26T00:00:00,"","","","","","",鎌倉時代の特色をよく表している懸仏です。,"",懸仏は、「神は仏の仮の姿である」という本地垂迹説に基づくもので、廃仏毀釈の影響により、完全な形で伝来するものは貴重です。鏡に取り付けられた聖観音像は、鎌倉時代の特色をよく表しています。,"",https://www.city.shunan.lg.jp/soshiki/56/3445.html,""
59,352152,CPN0000059,山口県周南市,金銅経筒,コンドウキョウヅツ,"","",市指定重要文化財,美術工芸品,龍文寺,352152,"",山口県周南市大字長穂,山口県,周南市,大字長穂,"","",34.145035,131.836055,"","","","","","","","",1,口,,龍文寺,1994-10-05T00:00:00,"","","","","","",銅板で作られた六角形の経筒です。,"",銅板で造られた六角形の経筒で、六十六部聖が全国の霊場を巡って法華経を奉納するためのものです。銘文によれば、越後国の住侶空源が弘治2年（1556）に奉納したことが分かります。,"",https://www.city.shunan.lg.jp/soshiki/56/3445.html,""
60,352152,CPN0000060,山口県周南市,金銅柄香炉,コンドウエコウロ,"","",市指定重要文化財,美術工芸品,岩屋寺,352152,"",山口県周南市大字下上,山口県,周南市,大字下上,"","",34.09247,131.77782,"","","","","","","","",1,柄,,岩屋寺,2007-11-27T00:00:00,"","","","","","",室町時代の金銅造の柄をつけた香炉です。,"",金銅造の柄をつけた香炉で、密教で礼拝するときに用います。香炉のふたに蓮華唐草文様をめぐらし、造作は極めて丁寧です。柄の裏に「後藤宗福」「永禄二年卯月廿八日」と彫られ、製作者や製作年がわかる貴重なものです。,"",https://www.city.shunan.lg.jp/soshiki/56/3445.html,""
61,352152,CPN0000061,山口県周南市,鉄造茶釜,テツゾウチャガマ,"","",市指定重要文化財,美術工芸品,漢陽寺,352152,"",山口県周南市大字鹿野上,山口県,周南市,大字鹿野上,"","",34.235331,131.814742,"","","","","","","","",1,口,,漢陽寺,2018-03-22T00:00:00,"","","","","","",室町時代の鉄造茶釜です。,"",胴部に龍が描かれた室町時代の茶釜です。本体と一緒につくられた蓋が残っており貴重です。大内氏と関係の深い漢陽寺に伝わるもので、大内氏の庇護した芦屋鋳物師の作と思われます。,"",https://www.city.shunan.lg.jp/soshiki/56/3445.html,""
62,352152,CPN0000062,山口県周南市,八代集秀逸,ハチダイシュウシュウイツ,"","",市指定重要文化財,美術工芸品,"",352152,"",山口県周南市西桝町,山口県,周南市,西桝町,"","",,,"","","","","","","","",1,巻,,個人,1974-12-01T00:00:00,"","","","","","",室町時代の和歌の手本として書かれたものです。,"",８つの勅撰和歌集から10首ずつ秀歌を選び、和歌の手本として書かれたものです。伝来する由来ははっきりしませんが、永正３年（1506）に飛鳥井雅康が、甲斐の武田信達に授けたものです。,"",https://www.city.shunan.lg.jp/soshiki/56/3445.html,""
63,352152,CPN0000063,山口県周南市,連歌懐紙,レンガカイシ,"","",市指定重要文化財,美術工芸品,山崎八幡宮,352152,"",山口県周南市宮の前一丁目,山口県,周南市,宮の前一丁目,"","",34.075034,131.762417,"","","","","","","","",62,帳,,山崎八幡宮,1982-05-01T00:00:00,"","","","","","",連歌の懐紙と興行のために寄進された硯箱と関係文書です。,"",延宝9年（1681）から明治5年にかけて興行された連歌の懐紙と興行のために寄進された硯箱と関係文書です。懐紙は一部欠きますが、用具とともに伝えられ、近世の文芸資料として貴重なものです。,"",https://www.city.shunan.lg.jp/soshiki/56/3445.html,""
64,352152,CPN0000064,山口県周南市,大蔵経　,ダイゾウキョウ,"","",市指定重要文化財,美術工芸品,円照寺,352152,"",山口県周南市大字八代,山口県,周南市,大字八代,"","",34.093424,131.945022,"","","","","","","","",8534,巻,,円照寺,1969-03-30T00:00:00,"","","","","","",円照寺にある仏教の経本です。,"",大蔵経とは、仏教の経を一堂に集めたものをいいます。円照寺第12世住職愍順和尚は、篤学の人で、明治24年（1891）に村民の浄財を用いて購入した、1916部、8534巻もの経本です。,"",https://www.city.shunan.lg.jp/soshiki/56/3445.html,""
65,352152,CPN0000065,山口県周南市,紙本墨書大般若波羅密多経,シホンボクショダイハンニャハラミタキョウ,"","",市指定重要文化財,美術工芸品,保福寺,352152,"",山口県周南市大字須々万奥,山口県,周南市,大字須々万奥,"","",34.124045,131.865655,"","","","","","","","",598,巻,,保福寺,1977-05-17T00:00:00,"","","","","","",室町時代に須々万八幡宮(現・飛龍八幡宮)に奉納された経です。,"",もとは、応永21年（1414）頃に須々万八幡宮（現、飛龍八幡宮）に奉納された経です。大般若経転読の際に掲げる釈迦十六善神図とともに伝来しており、また歴史資料としての価値もあります。,"",https://www.city.shunan.lg.jp/soshiki/56/3445.html,""
66,352152,CPN0000066,山口県周南市,建咲院文書,ケンショウインモンジョ,"","",市指定重要文化財,美術工芸品,建咲院,352152,"",山口県周南市土井一丁目,山口県,周南市,土井一丁目,"","",34.07995,131.77142,"","","","","","","","",32,点,,建咲院,2000-03-30T00:00:00,"","","","","","",毛利氏が建咲院に宛てた文書などです。,"",永禄2年（1559）から近世初期にかけて、毛利氏が建咲院に宛てた文書などです。陶氏の菩提寺であった建咲院への毛利氏の対応を示すもので、毛利氏の宗教政策の一端を示す史料として重要です。,"",https://www.city.shunan.lg.jp/soshiki/56/3445.html,""
67,352152,CPN0000067,山口県周南市,神上神社文書,コウノウエジンジャモンジョ,"","",市指定重要文化財,美術工芸品,周南市美術博物館（寄託）,352152,"",山口県周南市大字下上,山口県,周南市,大字下上,"","",34.087757,131.767688,"","","","","","","","",30,通,,神上神社,2013-03-26T00:00:00,"","","","","","",神上神社に残されていた中世から近世にかけての古文書です。,"",神上神社に残されていた中世から近世にかけての古文書30通で、市内では最古級のものです。陶氏や毛利氏など時の権力者と神社との関係が記されており、特に陶氏に関する文書は残存するものが少なく、大変貴重です。,"",https://www.city.shunan.lg.jp/soshiki/56/3445.html,""
68,352152,CPN0000068,山口県周南市,永源山横穴墓出土遺物,エイゲンザンヨコアナボシュツドイブツ,"","",市指定重要文化財,美術工芸品,周南市民俗資料館,352152,"",山口県周南市中畷町,山口県,周南市,中畷町,"","",34.06956,131.72894,"","","","","","","","",1,括,,周南市,1987-05-12T00:00:00,月、水、金、第１土、第３土,9:30,16:30,年末年始休館,"","",古墳時代後期(6世紀)の横穴墓から出土した遺物です。,"",古墳時代後期(6世紀)の横穴墓から出土した遺物で、須恵器や土師器、鉄刀、ガラス玉などのほか、土器に入れられたままのハマグリやカラス貝などの供物が残っていたことが、古墳の祭祀を知るうえで貴重です。,"",https://www.city.shunan.lg.jp/soshiki/56/3445.html,""
69,352152,CPN0000069,山口県周南市,新畑神舞,シンバタカンマイ,"","",市指定重要無形民俗文化財,"",熊毛神社,352152,"",山口県周南市大字呼坂,山口県,周南市,大字呼坂,"","",34.043999,131.952127,"","","","","","","","",-,-,,新畑神舞保存会,1977-04-01T00:00:00,"","","","","","",熊毛神社と人丸神社の祭礼に奉納される神楽舞です。,"",熊毛神社と人丸神社の祭礼に奉納される神楽舞です。白衣に馬乗袴をはき、五色のたすきをかけて、鉢巻をしめて舞い、はやしは笛や太鼓、鉦を用います。,"",https://www.city.shunan.lg.jp/soshiki/56/3445.html,""
70,352152,CPN0000070,山口県周南市,須々万八朔祭り,ススマハッサクマツリ,"","",市指定重要無形民俗文化財,"",菅原神社（飛龍八幡宮境内）,352152,"",山口県周南市大字須々万本郷,山口県,周南市,大字須々万本郷,"","",34.118635,131.863402,"","","","","","","","",-,-,,須々万八朔祭り保存会,2009-07-22T00:00:00,"","","","","","",八朔祭りと風鎮際に、天満宮の祭りが組み合わさった須々万地区の祭りです。,"",夏の暑気と災厄を払い除ける八朔祭りと稲の育成を願って穂ばらみ期の風害を除けようとする風鎮際に、天満宮の祭りが組み合わさったものです。須々万各地区から揉山が奉納されるとともに、大名行列を先導とした大行司・小行司、網代車が天満宮から御旅所までを往復します。,"",https://www.city.shunan.lg.jp/soshiki/56/3445.html,""
71,352152,CPN0000071,山口県周南市,寺嶋忠三郎誕生の地,テラシマチュウザブロウタンジョウノチ,"","",市指定史跡,"","",352152,"",山口県周南市大字原,山口県,周南市,大字原,"","",34.052760,131.969238,"","","","","","","","",1,ヶ所,,自治会,1968-03-06T00:00:00,"","","","","","",松下村塾で吉田松陰に学んだ、寺嶋忠三郎の生地です。,"",寺嶋忠三郎の生地です。忠三郎は、松下村塾で吉田松陰に学び、尊王攘夷運動に尽くしましたが、禁門の変に際して久坂玄瑞とともに自刃しました。顕彰碑と辞世の碑が建てられています。,"",https://www.city.shunan.lg.jp/soshiki/56/3445.html,""
72,352152,CPN0000072,山口県周南市,呼坂本陣跡,ヨビサカホンジンアト,"","",市指定史跡,"","",352152,"",山口県周南市大字呼坂,山口県,周南市,大字呼坂,"","",34.050553,131.967691,"","","","","","","","",1,ヶ所,,個人,1969-03-30T00:00:00,"","","","","","",山陽道呼坂宿において、参勤交代の大名などの休憩・宿泊の場所でした。,"",山陽道呼坂宿において、参勤交代の大名などの休憩・宿泊の場所でした。天明年間（1780年代）から河内家が本陣を引き受け、宿泊した大名などの名前を記した御休札も残されています。,"",https://www.city.shunan.lg.jp/soshiki/56/3445.html,""
73,352152,CPN0000073,山口県周南市,毛利元就の歯廟,モウリモトナリノシビョウ,"","",市指定史跡,"","",352152,"",山口県周南市大字小松原,山口県,周南市,大字小松原,"","",34.056389,132.006992,"","","","","","","","",1,ヶ所,,個人,1969-03-30T00:00:00,"","","","","","",毛利元政が父元就などの供養のため建てた宝篋印塔です。,"",毛利元就の七男で、慶長8年(1603)に三丘領主となった毛利元政が、その年が父元就の33回忌、母の3回忌であったことから建てた宝篋印塔です。元政が身につけていた元就の歯を納めたと伝えられています。,"",https://www.city.shunan.lg.jp/soshiki/56/3445.html,""
74,352152,CPN0000074,山口県周南市,吉田松陰と寺嶋忠三郎訣別の地,ヨシダショウイントテラシマチュウザブロウケツベツノチ,"","",市指定史跡,"","",352152,"",山口県周南市大字呼坂,山口県,周南市,大字呼坂,"","",34.050104,131.966149,"","","","","","","","",1,ヶ所,,個人,1971-02-04T00:00:00,"","","","","","",吉田松陰と弟子の寺嶋忠三郎との訣別の場所です。,"",安政6年(1859)吉田松陰が、萩の野山嶽から江戸に護送される途中、弟子の寺嶋忠三郎と師が無言の別れを告げた場所です。師弟それぞれの思いを詠んだ歌碑が建てられています。,"",https://www.city.shunan.lg.jp/soshiki/56/3445.html,""
75,352152,CPN0000075,山口県周南市,福川本陣跡,フクガワホンジンアト,"","",市指定史跡,"","",352152,"",山口県周南市本陣町,山口県,周南市,本陣町,"","",34.073903,131.732808,"","","","","","","","",1,ヶ所,,個人,1973-08-01T00:00:00,"","","","","","",山陽道福川宿において、参勤交代の大名などの休憩・宿泊の場所でした。,"",山陽道福川宿において、参勤交代の大名などの休憩・宿泊の場所でした。代々福田家が預かり、表口17間、奥行き14間で門構えのある屋敷でした。天保9年(1838)に建てられた門が名残を留めています。,"",https://www.city.shunan.lg.jp/soshiki/56/3445.html,""
76,352152,CPN0000076,山口県周南市,杉元相父子の墓所,スギモトスケフシノボショ,"","",市指定史跡,"",興元寺,352152,"",山口県周南市大字徳山,山口県,周南市,大字徳山,"","",34.065805,131.830177,"","","","","","","","",1,ヶ所,,興元寺,1976-07-26T00:00:00,"","","","","","",野上庄の領主、杉元相とその子元宣の墓所です。,"",陶氏の後に野上庄の領主となった杉元相とその子元宣の墓所で、2基の宝篋印塔が並んでいます。興元寺は元相が菩提寺として創建した寺です。元宣は天正17年(1589)に毛利氏に謀られて最期を遂げたといわれています。,"",https://www.city.shunan.lg.jp/soshiki/56/3445.html,""
77,352152,CPN0000077,山口県周南市,高水村塾跡及び楽学の碑,タカミズソンジュクアトオヨビラクガクノヒ,"","",市指定史跡,"","",352152,"",山口県周南市大字樋口,山口県,周南市,大字樋口,"","",34.060336,131.979943,"","","","","","","","",1,ヶ所,,周南市,1983-12-07T00:00:00,"","","","","","",高水村有志によって建てられた塾跡地です。,"",明治31年に高水村有志によって塾が建てられ、のち大正9年には高水中学校(現在、高水高校となり岩国市へ移転)となり、多くの人材を育成した地です。楽学の碑は、高水村民の教育に対する情熱をたたえたものです。,"",https://www.city.shunan.lg.jp/soshiki/56/3445.html,""
78,352152,CPN0000078,山口県周南市,羽島一号古墳,ハジマイチゴウコフン,"","",市指定史跡,"","",352152,"",山口県周南市羽島二丁目,山口県,周南市,羽島二丁目,"","",34.075008,131.723510,"","","","","","","","",1,ヶ所,,個人,1986-09-05T00:00:00,"","","","","","",古墳時代後期の横穴式石室の古墳です。,"",古墳時代後期(6世紀)に築かれた横穴式石室の古墳です。後世、羽島八十八箇所の札所として信仰されていて、天井石や副葬品はすでに失われています。,"",https://www.city.shunan.lg.jp/soshiki/56/3445.html,""
79,352152,CPN0000079,山口県周南市,徳山毛利家墓所,トクヤマモウリケボショ,"","",市指定史跡,"","",352152,"",山口県周南市大字徳山,山口県,周南市,大字徳山,"","",34.050613,131.815257,"","","","","","","","",1,ヶ所,,個人,2009-10-23T00:00:00,"","","","","","",徳山藩歴代藩主と妻子の墓所です。,"",徳山藩歴代藩主と妻子の墓所で、菩提寺である大成寺の東側丘陵上に立ち並びます。近世大名の葬制を知るうえで貴重であるとともに、城下町徳山の歴史を語るうえで重要な史跡です。,"",https://www.city.shunan.lg.jp/soshiki/56/3445.html,""
80,352152,CPN0000080,山口県周南市,やげん谷一里塚,ヤゲンタニイチリヅカ,"","",市指定史跡,"","",352152,"",山口県周南市大字中須南,山口県,周南市,大字中須南,"","",34.105902,131.933823,"","","","","","","","",1,ヶ所,,周南市,1987-04-23T00:00:00,"","","","","","",塚の周囲を石組で覆ったもので、小郡と高森を結ぶ往還道の一里塚です。,"",盛土された塚の周囲を石組で覆ったもので、小郡と高森を結ぶ往還道の一里塚です。この場所は、高森から4番目にあたります。一里塚の多くは幕末に取り除かれたり、近代の道路拡幅などで姿を消しており貴重です。,"",https://www.city.shunan.lg.jp/soshiki/56/3445.html,""
81,352152,CPN0000081,山口県周南市,毛利元政の墓所,モウリモトマサノボショ,"","",市指定史跡,"","",352152,"",山口県周南市大字小松原,山口県,周南市,大字小松原,"","",34.055217,132.005878,"","","","","","","","",1,ヶ所,,貞昌寺,1991-05-16T00:00:00,"","","","","","",三丘領主毛利元政の長男元倶が建てた石塔です。,"",三丘領主毛利元政の長男、元倶が建てたものです。慶長14年（1609）に建てた父である元政の宝篋印塔と元和4年（1618）に建てた義母の石塔が並びます。,"",https://www.city.shunan.lg.jp/soshiki/56/3445.html,""
82,352152,CPN0000082,山口県周南市,陶氏墓所,スエシボショ,"","",市指定史跡,"",龍文寺,352152,"",山口県周南市大字長穂,山口県,周南市,大字長穂,"","",34.145035,131.836055,"","","","","","","","",1,ヶ所,,龍文寺,2005-03-18T00:00:00,"","","","","","",大内氏の重臣、陶氏一族の墓所です。,"",龍文寺は、永享元年(1429)に陶氏5代の盛政が菩提寺として創建した寺です。盛政の墓は現在所在が分かりませんが、陶氏一族の宝篋印塔・五輪塔などが建ち並んでいます。,"",https://www.city.shunan.lg.jp/soshiki/56/3445.html,""
83,352152,CPN0000083,山口県周南市,高水神社夫婦岩,タカミズジンジャメオトイワ,"","",市指定名勝,"","",352152,"",山口県周南市大字清尾,山口県,周南市,大字清尾,"","",34.054905,131.994038,"","","","","","","","",1,対,,高水神社,1983-09-16T00:00:00,"","","","","","",高水神社裏の清尾山の山頂に並び立つ2つの巨岩です。,"",高水神社裏の清尾山の山頂に並び立つ2つの巨岩です。熊野権現の分霊をこの地に勧請した際の影向石と伝えられ、熊毛八景のひとつとなっています。,"",https://www.city.shunan.lg.jp/soshiki/56/3445.html,""
84,352152,CPN0000084,山口県周南市,明神の藪,ミョウジンノヤブ,"","",市指定天然記念物,"","",352152,"",山口県周南市大字大向,山口県,周南市,大字大向,"","",,,"","","","","","","","",1,ヶ所,,個人,1974-09-24T00:00:00,"","","","","","","金峰山の西側斜面約5,000平方メートルにわたる自然の姿を保った樹林です。","","金峰山の西側斜面約5,000平方メートルにわたる樹林です。「もり様」と呼ばれている神地で、今も自然の姿を保っています。落葉性の広葉樹を中心とした林相で、近距離にある長穂地区の周方神社社叢との相違は、珍しいものです。","",https://www.city.shunan.lg.jp/soshiki/56/3445.html,""
85,352152,CPN0000085,山口県周南市,周方神社社叢,スワジンジャシャソウ,"","",市指定天然記念物,"",周方神社,352152,"",山口県周南市大字長穂,山口県,周南市,大字長穂,"","",,,"","","","","","","","",1,ヶ所,,周方神社,1974-09-24T00:00:00,"","","","","","","周方神社背後の約4,000平方メートルにわたる自然の姿を保った樹林です。","","周方神社背後の丘の南斜面約4,000平方メートルに及ぶ樹林です。常緑性の広葉樹を中心とした林相で、近距離にある大向地区の明神の藪との相違は珍しいものです。","",https://www.city.shunan.lg.jp/soshiki/56/3445.html,""
86,352152,CPN0000086,山口県周南市,高瀬先山のミズメ,タカセサキヤマノミズメ,"","",市指定天然記念物,"","",352152,"",山口県周南市大字高瀬,山口県,周南市,大字高瀬,"","",34.181352,131.786541,"","","","","","","","",1,本,,個人,1987-05-12T00:00:00,"","","","","","",カバノキ科の高木で、先山地区の旧河内社にある神木です。,"",カバノキ科の高木で、通常胸高の直径は60㎝程度のところが、110㎝以上あり、本種の最大生長の具体例を示すものです。先山地区の氏神の旧河内社にあり、神木とされたと思われます。,"",https://www.city.shunan.lg.jp/soshiki/56/3445.html,""
87,352152,CPN0000087,山口県周南市,興元寺のイチョウ,コウゲンジノイチョウ,"","",市指定天然記念物,"",興元寺,352152,"",山口県周南市大字徳山,山口県,周南市,大字徳山,"","",34.065805,131.830177,"","","","","","","","",1,本,,興元寺,1994-10-05T00:00:00,"","","","","","",市内最大のイチョウの雌木です。,"",市内最大のイチョウの雌木です。県内でも有数の巨樹で、幹には数個の小さい「ちち」といわれる気根が垂れています。,"",https://www.city.shunan.lg.jp/soshiki/56/3445.html,""
88,352152,CPN0000088,山口県周南市,二俣神社社叢,フタマタジンジャシャソウ,"","",市指定天然記念物,"",二俣神社,352152,"",山口県周南市大字大向,山口県,周南市,大字大向,"","",,,"","","","","","","","",1,ヶ所,,二俣神社,2007-11-27T00:00:00,"","","","","","",二俣神社の後背地の常緑広葉樹林で、県内陸部の植生を良く表しています。,"",二俣神社の後方にある常緑広葉樹林です。高木層にツクバネガシ、シラカシ等、亜高木層にサカキが多く、ヤブツバキ、ユズリハ等が見られるなど、山口県内陸部の植生を良く表しています。,"",https://www.city.shunan.lg.jp/soshiki/56/3445.html,""
89,352152,CPN0000089,山口県周南市,掘貫溜池周辺の植物,ホリヌキタメイケシュウヘンノショクブツ,"","",市指定天然記念物,"","",352152,"",山口県周南市大字八代,山口県,周南市,大字八代,"","",,,"","","","","","","","",1,ヶ所,,周南市,2011-03-23T00:00:00,"","","","","","",溜池周辺の湿地に貴重な植物が多数生息しています。,"",貴重な植物が多数生息していますが、特にミズニラモドキは、環境省絶滅危惧Ⅱ類、山口県絶滅危惧ⅠA類に指定されており、県内では確実に観察できる唯一の場所です。,"",https://www.city.shunan.lg.jp/soshiki/56/3445.html,""
90,352152,CPN0000090,山口県周南市,四熊家住宅主屋,シクマケジュウタクシュオク,"","",登録有形文化財,建造物,四熊家住宅,352152,"",山口県周南市土井一丁目,山口県,周南市,土井一丁目,"","",34.079952,131.772918,"","","","","","","","",1,棟,,個人,2000-10-18T00:00:00,"","","","","","",江戸時代初期から医業を受け継いだ旧家の主屋です。,"",江戸時代初期から医業を受け継いだ旧家の主屋で、桁行8間半、梁間5間半、2階建てで、屋根は寄棟造、茅葺で、周囲に桟瓦葺の庇を巡らせています。県下でも数少ない大規模な茅葺屋根を残す民家で、裏山を背負って建つ姿は、地域を代表する歴史的景観を形成しています。,"",https://www.city.shunan.lg.jp/soshiki/56/3445.html,""
91,352152,CPN0000091,山口県周南市,四熊家住宅診療棟,シクマケジュウタクシンリョウトウ,"","",登録有形文化財,建造物,四熊家住宅,352152,"",山口県周南市土井一丁目,山口県,周南市,土井一丁目,"","",34.079952,131.772918,"","","","","","","","",1,棟,,個人,2000-10-18T00:00:00,"","","","","","",江戸時代初期から医業を受け継いだ旧家主屋の付属棟です。,"",主屋の玄関脇に前方に突出して設けられた付属棟で、約5メートル四方の診療室とその東脇の出入り口・受付からなります。外壁は鼠漆喰塗りとし、縦長の上下げ窓の窓枠や隅の柱形は繰形を付けて白漆喰で仕上げ、控えめながら洋風の意匠を造っています。,"",https://www.city.shunan.lg.jp/soshiki/56/3445.html,""
92,352152,CPN0000092,山口県周南市,旧日下医院本館,キュウクサカイインホンカン,"","",登録有形文化財,建造物,旧日下医院,352152,"",山口県周南市土井二丁目,山口県,周南市,土井二丁目,"","",34.07622,131.77172,"","","","","","","","",1,棟,,個人,2008-10-23T00:00:00,"","","","","","",昭和３年築の元病院の本館です。,"",昭和３年築の元病院の建物で、木造2階建、L字型に落棟を設ける寄棟造瓦葺の構造です。車寄せや建物の上部に意匠を凝らし、また壁に柱型のデザインを施すほか幾何学的な装飾があります。,"",https://www.city.shunan.lg.jp/soshiki/56/3445.html,""
93,352152,CPN0000093,山口県周南市,旧日下医院別館,キュウクサカイインベッカン,"","",登録有形文化財,建造物,旧日下医院,352152,"",山口県周南市土井二丁目,山口県,周南市,土井二丁目,"","",34.07622,131.77172,"","","","","","","","",1,棟,,個人,2008-10-23T00:00:00,"","","","","","",昭和３年築の元病院の別館です。,"",主屋の南側に戦後増築した建物で、鉄板葺木造2階建の構造です。本館と統一的な意匠で、一体的な景観を示していますが、軒まわりや幾何学的装飾の細部などに違いがあります。,"",https://www.city.shunan.lg.jp/soshiki/56/3445.html,""
94,352152,CPN0000094,山口県周南市,旧日下医院正門及び塀,キュウクサカイインセイモンオヨビヘイ,"","",登録有形文化財,建造物,旧日下医院,352152,"",山口県周南市土井二丁目,山口県,周南市,土井二丁目,"","",34.07622,131.77172,"","","","","","","","",1,棟,,個人,2008-10-23T00:00:00,"","","","","","",昭和３年築の元病院の正門及び塀です。,"",主屋及び別館、居宅を取り囲む塀で、主屋と同時期の建造物です。南側の一部を除き、人造石洗い出し仕上げされた本体上部に、徳山産御影石がのせられた構造となっています。,"",https://www.city.shunan.lg.jp/soshiki/56/3445.html,""
95,352152,CPN0000095,山口県周南市,周南市市長公舎洋館,シュウナンシシチョウコウシャヨウカン　,"","",登録有形文化財,建造物,周南市長公舎,352152,"",山口県周南市慶万町,山口県,周南市,慶万町,"","",34.05026,131.81378,"","","","","","","","",1,棟,,周南市,2008-10-23T00:00:00,"","","","","","",周南市市長公舎で、元は徳山海軍燃料廠長の官舎の洋館です。,"",洋館は、応接間、玄関、便所などによって構成され、外観の切妻屋根の妻壁にみられるイギリスのチューダー様式のハーフティンバーと玄関ポーチの円柱が特徴的です。,"",https://www.city.shunan.lg.jp/soshiki/56/3445.html,""
96,352152,CPN0000096,山口県周南市,周南市市長公舎和館,シュウナンシシチョウコウシャワカン,"","",登録有形文化財,建造物,周南市長公舎,352152,"",山口県周南市慶万町,山口県,周南市,慶万町,"","",34.05026,131.81378,"","","","","","","","",1,棟,,周南市,2008-10-23T00:00:00,"","","","","","",周南市市長公舎で、元は徳山海軍燃料廠長の官舎の和館です。,"",和館は、この建物の最後部にある寄棟屋根の棟と、洋館の中間にある繋ぎ屋の棟で構成されています。床の間のある10畳と次室10畳からなる二間続きの座敷があって、これに玄関が突出しています。,"",https://www.city.shunan.lg.jp/soshiki/56/3445.html,""
97,352152,CPN0000097,山口県周南市,遠石八幡宮本殿,トイシハチマングウホンデン,"","",登録有形文化財,建造物,遠石八幡宮,352152,"",山口県周南市遠石２丁目,山口県,周南市,遠石２丁目,"","",34.039823,131.823120,"","","","","","","","",1,棟,3250005005388,遠石八幡宮,2013-12-24T00:00:00,"","","","","","",遠石八幡宮の本殿です。,"",本殿は、三間社流造、拝殿は山口県の伝統的な楼拝殿形式となっており、本殿と拝殿の間を幣殿が繋いでいます。社殿は、昭和11年に火災で焼失したのちに再建されたもので、内務省技師であった角南隆（すなみたかし）が顧問を務め、稲垣英夫が設計を手掛けた、近代的な神社建築となっています。,"",https://www.city.shunan.lg.jp/soshiki/56/3445.html,""
98,352152,CPN0000098,山口県周南市,遠石八幡宮幣殿,トイシハチマングウヘイデン,"","",登録有形文化財,建造物,遠石八幡宮,352152,"",山口県周南市遠石２丁目,山口県,周南市,遠石２丁目,"","",34.039823,131.823120,"","","","","","","","",1,棟,3250005005388,遠石八幡宮,2013-12-24T00:00:00,"","","","","","",遠石八幡宮の幣殿です。,"",幣殿は、本殿に連続的に作られています。上段と下段に分かれており、上段は床板貼り、下段は花崗岩の碁盤敷き仕上げで、ほぼ正方形に目地が切られています。,"",https://www.city.shunan.lg.jp/soshiki/56/3445.html,""
99,352152,CPN0000099,山口県周南市,遠石八幡宮拝殿,トイシハチマングウハイデン,"","",登録有形文化財,建造物,遠石八幡宮,352152,"",山口県周南市遠石２丁目,山口県,周南市,遠石２丁目,"","",34.039823,131.823120,"","","","","","","","",1,棟,3250005005388,遠石八幡宮,2013-12-24T00:00:00,"","","","","","",遠石八幡宮の拝殿です。,"",拝殿は、幣殿に連続的に作られています。外観は山口県独特の楼拝殿形式を踏襲しています。規模は三間三戸、廻廊はそれぞれ、桁行三間梁行二間です。,"",https://www.city.shunan.lg.jp/soshiki/56/3445.html,""
100,352152,CPN0000100,山口県周南市,遠石八幡宮祭器庫,トイシハチマングウサイキコ,"","",登録有形文化財,建造物,遠石八幡宮,352152,"",山口県周南市遠石２丁目,山口県,周南市,遠石２丁目,"","",34.039823,131.823120,"","","","","","","","",1,棟,3250005005388,遠石八幡宮,2013-12-24T00:00:00,"","","","","","",遠石八幡宮の祭器庫です。,"",祭器庫は、幣殿、拝殿の東側に位置する木造平屋建切妻造銅板葺の建物です。透塀と一体的に建設されており、平面的に見ると神饌所と左右対称に配されています。建物部材の木口は全て白く塗装されています。,"",https://www.city.shunan.lg.jp/soshiki/56/3445.html,""
101,352152,CPN0000101,山口県周南市,遠石八幡宮神饌所,トイシハチマングウシンセンショ,"","",登録有形文化財,建造物,遠石八幡宮,352152,"",山口県周南市遠石２丁目,山口県,周南市,遠石２丁目,"","",34.039823,131.823120,"","","","","","","","",1,棟,3250005005388,遠石八幡宮,2013-12-24T00:00:00,"","","","","","",遠石八幡宮の神饌所です。,"",神饌所は、幣殿、拝殿の西側に位置する木造平屋建切妻造銅板葺の建物です。透塀と一体的に建設されており、平面的に見ると祭器庫と左右対称に配されています。建物部材の木口は全て白く塗装されています。,"",https://www.city.shunan.lg.jp/soshiki/56/3445.html,""
102,352152,CPN0000102,山口県周南市,遠石八幡宮透塀,トイシハチマングウスキベイ,"","",登録有形文化財,建造物,遠石八幡宮,352152,"",山口県周南市遠石２丁目,山口県,周南市,遠石２丁目,"","",34.039823,131.823120,"","","","","","","","",1,棟,3250005005388,遠石八幡宮,2013-12-24T00:00:00,"","","","","","",遠石八幡宮の透塀です。,"",透塀は、木造銅板葺で、社殿敷地の形状なりに作られています。本殿、幣殿の東西及び北側を囲い、神饌所及び祭器庫と一体に建設されています。屋根は切妻造で、本殿の背後に門を持ちます。垂木など、建物部材の木口は全て白く塗装されています。,"",https://www.city.shunan.lg.jp/soshiki/56/3445.html,""
103,352152,CPN0000103,山口県周南市,遠石八幡宮神門及び袖塀,トイシハチマングウシンモンオヨビソデベイ,"","",登録有形文化財,建造物,遠石八幡宮,352152,"",山口県周南市遠石２丁目,山口県,周南市,遠石２丁目,"","",34.039823,131.823120,"","","","","","","","",1,棟,3250005005388,遠石八幡宮,2013-12-24T00:00:00,"","","","","","",遠石八幡宮の神門及び袖塀です。,"",神門及び両脇袖塀は、拝殿南の敷地内中央に位置します。四脚門で入母屋造であり、両脇に袖塀が続いています。参道の手前から神門にかけてはスロープにてアクセスできます。,"",https://www.city.shunan.lg.jp/soshiki/56/3445.html,""
104,352152,CPN0000104,山口県周南市,遠石八幡宮手水舎,トイシハチマングウテミズシャ,"","",登録有形文化財,建造物,遠石八幡宮,352152,"",山口県周南市遠石２丁目,山口県,周南市,遠石２丁目,"","",34.039823,131.823120,"","","","","","","","",1,棟,3250005005388,遠石八幡宮,2013-12-24T00:00:00,"","","","","","",遠石八幡宮の手水舎です。,"",昭和16年に作られました。切妻造で、6本の柱が大きな基礎石の上に据え置かれ、花崗岩製の水盤が中央に置かれています。,"",https://www.city.shunan.lg.jp/soshiki/56/3445.html,""
105,352152,CPN0000105,山口県周南市,松室大橋,マツムロオオハシ,"","",登録有形文化財,建造物,松室大橋,352152,"",山口県周南市大字金峰,山口県,周南市,大字金峰,"","",34.14861,131.90191,"","","","","","","","",1,基,,周南市,2018-11-02T00:00:00,"","","","","","",大正9年に建築された橋梁です。,"",現在知られている国内の橋梁のうち、建設当初の位置にあり、かつ現役の車道用の鋼製単純トラス橋としては国内最古のものです。,"",https://www.city.shunan.lg.jp/soshiki/56/3445.html,""
106,352152,CPN0000106,山口県周南市,漢陽寺庭園,カンヨウジテイエン,"","",登録記念物,"",漢陽寺,352152,"",山口県周南市大字鹿野,山口県,周南市,大字鹿野,"","",34.23562,131.81456,"","","","","","","","",1,ヶ所,3250005005339,漢陽寺,2021-10-11T00:00:00,"","","","","","",昭和40年代に作庭家の重森三玲が造った漢陽寺の庭園です。,"",漢陽寺庭園は、昭和40年代に作庭家の重森三玲（1896～1975）が造った庭園です。水の流れを主体とする「曲水の庭」、枯山水の「地蔵遊化の庭」、石組と池泉を中心とする「九山八海の庭」など、大きさや様式の異なる複数の庭園から構成されています。,"",https://www.city.shunan.lg.jp/soshiki/56/3445.html,""
107,352152,CPN0000107,山口県周南市,川崎観音堂本堂,カワサキカンノウドウホンドウ,"","",登録有形文化財,建造物,川崎観音堂,352152,"",山口県周南市川崎二丁目,山口県,周南市,川崎二丁目,"","",34.07396,131.77927,"","","","","","","","",1,棟,8250005005607,川崎観音堂,2022-02-17T00:00:00,"","","","","","",川崎観音堂の本堂です。,"",川崎観音堂は、元和6年に開山した曹洞宗万福寺の観音堂で、大内弘世が定めた周防国三十三観音霊場の第十八番札所として、本尊は平景清の護持仏であった十一面観音菩薩と伝えられています。川崎観音堂本堂は、三間四面で正面に向拝が付き、隅扇垂木や桟唐戸など、禅宗様の特色を表し、海老虹梁をはじめ各所に丁寧な装飾を施しています。近隣住民のみならず、宗派に関係なく多くの参拝客が訪れ親しまれている川崎観音堂は、地域の歴史的景観の形成に寄与しています。,"",https://www.city.shunan.lg.jp/soshiki/56/3445.html,""
108,352152,CPN0000108,山口県周南市,川崎観音堂山門,カワサキカンノウドウサンモン,"","",登録有形文化財,建造物,川崎観音堂,352152,"",山口県周南市川崎二丁目,山口県,周南市,川崎二丁目,"","",34.07396,131.77927,"","","","","","","","",1,棟,8250005005607,川崎観音堂,2022-02-17T00:00:00,"","","","","","",川崎観音堂の山門です。,"",川崎観音堂山門は、初層が石造、上層が木造の2階建てで、上層は全面に高欄が付き花頭窓を配しています。,"",https://www.city.shunan.lg.jp/soshiki/56/3445.html,""
109,352152,CPN0000109,山口県周南市,川崎観音堂門柱,カワサキカンノウドウモンチュウ,"","",登録有形文化財,建造物,川崎観音堂,352152,"",山口県周南市川崎二丁目,山口県,周南市,川崎二丁目,"","",34.07396,131.77927,"","","","","","","","",1,基,8250005005607,川崎観音堂,2022-02-17T00:00:00,"","","","","","",川崎観音堂の門柱です。,"",川崎観音堂門柱は、御影石の造り出しで繰形を施しています。,"",https://www.city.shunan.lg.jp/soshiki/56/3445.html,""
